City,Lat,Lng,Max Temp,Humidity,Cloudiness,Wind Speed,Country,Date
Vardø,70.3705,31.1107,31.98,80,100,20.71,NO,1666736798
Coacoyul,17.8058,-99.11,79.3,59,84,1.63,MX,1666736798
Arraial do Cabo,-22.9661,-42.0278,73.36,78,75,4.61,BR,1666736798
Bambous Virieux,-20.3428,57.7575,73.22,78,40,9.22,MU,1666736799
Tasiilaq,65.6145,-37.6368,32.16,96,100,4.18,GL,1666736799
Hilo,19.7297,-155.09,82.13,76,75,13.0,US,1666736799
Rikitea,-23.1203,-134.9692,73.2,74,55,17.78,PF,1666736638
Nikel,69.4128,30.222,28.58,90,100,11.61,RU,1666736800
Sioux Lookout,50.1001,-91.917,35.67,69,75,14.97,CA,1666736800
San Patricio,28.017,-97.5169,78.75,20,0,8.97,US,1666736262
Port Alfred,-33.5906,26.891,60.19,91,99,5.99,ZA,1666736801
Ushuaia,-54.8,-68.3,49.66,37,75,11.5,AR,1666736801
Esperance,-33.8667,121.9,56.98,76,22,8.39,AU,1666736801
Avarua,-21.2078,-159.775,78.85,53,100,6.91,CK,1666736802
Khasan,42.4308,130.6434,42.8,78,0,4.14,RU,1666736802
Pisco,-13.7,-76.2167,64.45,72,0,19.57,PE,1666736802
Rawson,-43.3002,-65.1023,60.21,47,100,16.13,AR,1666736241
Hermanus,-34.4187,19.2345,59.81,77,100,12.44,ZA,1666736803
New Norfolk,-42.7826,147.0587,54.91,84,100,5.01,AU,1666736803
Port Elizabeth,-33.918,25.5701,64.09,83,97,10.54,ZA,1666736554
Punta Arenas,-53.15,-70.9167,48.31,71,75,19.57,CL,1666736803
Dikson,73.5069,80.5464,22.84,85,99,1.88,RU,1666736643
Pangnirtung,66.1451,-65.7125,24.8,68,100,12.66,CA,1666736804
Lebu,-37.6167,-73.65,56.17,87,83,11.97,CL,1666736804
Airai,-8.9266,125.4092,62.96,88,100,1.1,TL,1666736644
Hambantota,6.1241,81.1185,76.19,87,100,5.57,LK,1666736645
Kahului,20.8947,-156.47,89.62,61,20,24.16,US,1666736645
Torbay,47.6666,-52.7314,55.49,86,20,6.91,CA,1666736805
Voyvozh,62.892,54.9635,28.02,89,99,4.16,RU,1666736805
Hobart,-42.8794,147.3294,55.27,97,75,18.41,AU,1666736805
Longyearbyen,78.2186,15.6401,13.84,79,20,9.22,SJ,1666736647
Kieta,-6.2167,155.6333,83.28,74,86,1.12,PG,1666736647
Wawa,9.9022,4.4192,80.31,63,100,2.57,NG,1666736253
Nandu,22.8525,110.8233,67.08,92,65,2.64,CN,1666736593
Busselton,-33.65,115.3333,54.1,90,75,4.85,AU,1666736806
Tūkrah,32.5341,20.5791,70.5,81,0,6.55,LY,1666736806
Dingle,10.9995,122.6711,75.97,93,100,5.75,PH,1666736807
Redmond,47.674,-122.1215,52.05,91,100,10.0,US,1666736681
Severo-Kuril'sk,50.6789,156.125,39.07,65,3,5.97,RU,1666736639
Barrow,71.2906,-156.7887,17.62,93,100,21.85,US,1666736807
Necochea,-38.5473,-58.7368,60.84,83,100,12.21,AR,1666736807
Chokurdakh,70.6333,147.9167,7.07,96,100,2.64,RU,1666736657
Lima,-12.0432,-77.0282,63.9,77,100,10.36,PE,1666736738
Garoowe,8.4054,48.4845,75.74,77,7,12.03,SO,1666736808
Amapá,1.0,-52.0,84.09,56,100,6.46,BR,1666736651
Margate,51.3813,1.3862,61.9,85,100,4.0,GB,1666736263
Sur,22.5667,59.5289,79.92,48,0,7.49,OM,1666736809
Luís Correia,-2.8792,-41.6669,84.2,74,0,17.27,BR,1666736652
Kourou,5.1552,-52.6478,80.65,80,93,8.16,GF,1666736809
Honiara,-9.4333,159.95,84.81,70,9,1.66,SB,1666736653
Impfondo,1.6381,18.0667,70.59,98,100,1.32,CG,1666736809
Naryan-Mar,67.6713,53.087,23.23,87,68,8.57,RU,1666736654
Nikolskoye,59.7035,30.7861,35.49,89,100,7.67,RU,1666736810
Katsuura,35.1333,140.3,56.1,74,88,25.95,JP,1666736810
Cape Town,-33.9258,18.4232,63.12,77,0,19.57,ZA,1666736811
Mitsamiouli,-11.3847,43.2844,75.52,79,3,13.04,KM,1666736811
Berlevåg,70.8578,29.0864,30.0,64,100,7.85,NO,1666736812
Puerto Ayora,-0.7393,-90.3518,75.16,90,81,7.0,EC,1666736724
Swan Hill,-35.3378,143.5544,59.95,87,82,11.7,AU,1666736656
Mataura,-46.1927,168.8643,54.48,60,100,4.14,NZ,1666736812
Ixtapa,20.7,-105.2,85.23,74,40,9.22,MX,1666736657
Los Llanos de Aridane,28.6585,-17.9182,67.75,75,40,5.99,ES,1666736813
Port-Cartier,50.0334,-66.8654,48.42,90,98,2.66,CA,1666736280
Tiarei,-17.5333,-149.3333,82.42,84,100,24.36,PF,1666736813
Roald,62.5833,6.1333,53.76,93,100,5.75,NO,1666736814
Mamlyutka,54.9375,68.5394,32.09,91,100,3.53,KZ,1666736260
Tuatapere,-46.1333,167.6833,52.32,78,100,2.33,NZ,1666736220
Bredasdorp,-34.5322,20.0403,60.78,74,100,7.63,ZA,1666736659
Bathsheba,13.2167,-59.5167,81.21,83,40,18.41,BB,1666736814
Tiksi,71.6872,128.8694,18.41,91,100,12.75,RU,1666736815
San Pelayo,8.9583,-75.8363,80.2,89,97,7.7,CO,1666736660
Sibu,2.3,111.8167,75.51,100,40,1.14,MY,1666736815
Churapcha,62.0025,132.4325,19.33,97,96,7.72,RU,1666736661
Kouango,4.9934,19.9619,72.45,93,96,1.48,CF,1666736815
Albany,42.6001,-73.9662,68.27,88,96,1.01,US,1666736477
Mahébourg,-20.4081,57.7,73.26,78,40,9.22,MU,1666736816
East London,-33.0153,27.9116,64.36,69,100,10.67,ZA,1666736813
Vanimo,-2.6741,141.3028,79.16,88,99,3.85,PG,1666736662
Khatanga,71.9667,102.5,3.42,98,88,6.31,RU,1666736816
Shakawe,-18.3667,21.85,80.4,33,83,2.95,BW,1666736817
Upernavik,72.7868,-56.1549,23.2,93,100,10.67,GL,1666736817
Jamestown,42.097,-79.2353,69.44,48,0,5.75,US,1666736622
Ponta do Sol,32.6667,-17.1,73.0,88,44,6.02,PT,1666736817
Ribeira Grande,38.5167,-28.7,62.78,73,85,5.01,PT,1666736818
Khandyga,62.6667,135.6,22.1,92,100,9.08,RU,1666736818
Pozo Colorado,-23.4923,-58.7972,85.6,34,0,6.93,PY,1666736819
Griffith,41.5284,-87.4237,62.49,97,100,3.44,US,1666736819
Lavrentiya,65.5833,-171.0,26.64,77,95,13.98,RU,1666735943
Williams Lake,52.1415,-122.1445,44.06,65,100,10.36,CA,1666736819
Ārvi,20.9833,78.2333,65.79,61,0,3.6,IN,1666736820
Baillif,16.0202,-61.7463,80.1,82,99,15.84,GP,1666736820
Novoanninskiy,50.5287,42.6747,39.56,71,25,5.53,RU,1666736820
Ozar,20.1,73.9333,65.35,60,0,0.89,IN,1666736821
College,64.8569,-147.8028,24.75,78,20,12.66,US,1666736821
Castro,-24.7911,-50.0119,63.12,84,0,4.74,BR,1666736668
Kloulklubed,7.0419,134.2556,84.11,78,100,21.41,PW,1666736283
Bluff,-46.6,168.3333,54.81,82,100,9.6,NZ,1666736821
Makhachkala,42.9764,47.5024,46.38,59,2,3.47,RU,1666736669
Devils Lake,48.1128,-98.8651,37.94,77,100,14.97,US,1666736822
Broken Hill,-31.95,141.4333,64.06,59,93,3.51,AU,1666736823
Fortuna,40.5982,-124.1573,61.93,75,0,13.8,US,1666736823
Bethel,41.3712,-73.414,69.89,88,100,6.91,US,1666736824
Butaritari,3.0707,172.7902,81.21,76,57,3.38,KI,1666736670
San Quintín,30.4833,-115.95,71.08,27,0,11.1,MX,1666736824
Aranos,-24.1333,19.1167,76.06,13,94,13.18,NA,1666736824
Petropavlovsk-Kamchatskiy,53.0452,158.6483,32.59,64,40,13.42,RU,1666736771
Hithadhoo,-0.6,73.0833,82.18,72,44,12.26,MV,1666736671
Isangel,-19.55,169.2667,80.71,78,75,5.75,VU,1666736825
Huainan,32.6264,116.9969,59.56,59,100,7.99,CN,1666736825
Mandera,3.9366,41.867,83.17,59,83,12.88,KE,1666736826
Port-Gentil,-0.7193,8.7815,78.76,94,40,5.75,GA,1666736826
Yellowknife,62.456,-114.3525,23.56,86,75,11.5,CA,1666736826
Touba,8.2833,-7.6833,76.01,69,90,0.63,CI,1666736827
Acajutla,13.5928,-89.8275,82.49,77,100,4.65,SV,1666736827
Tucuruí,-3.7661,-49.6725,83.73,67,100,1.63,BR,1666736827
Atuona,-9.8,-139.0333,77.32,68,3,16.51,PF,1666736674
Verāval,20.9,70.3667,77.09,66,1,8.79,IN,1666736674
Zykovo,55.9519,93.1461,21.94,62,9,4.09,RU,1666736674
Nagornyy,52.7959,83.5498,29.3,59,0,4.76,RU,1666736675
Kachug,53.9606,105.8817,24.44,63,59,2.19,RU,1666736675
Walvis Bay,-22.9575,14.5053,61.09,82,100,8.05,NA,1666736675
Bud,39.447,-86.1758,66.96,91,100,13.27,US,1666736676
Itaituba,-4.2761,-55.9836,81.64,74,100,4.5,BR,1666736676
Carutapera,-1.195,-46.02,79.59,76,80,9.15,BR,1666736829
Verkhnechusovskiye Gorodki,58.1671,57.1086,28.89,88,73,7.16,RU,1666736676
Hirara,24.8,125.2833,73.26,64,75,13.8,JP,1666736677
Aklavik,68.2191,-135.0107,14.0,85,75,2.3,CA,1666736677
Kaitangata,-46.2817,169.8464,55.49,57,100,5.03,NZ,1666736677
Pevek,69.7008,170.3133,-0.27,93,10,5.41,RU,1666736678
Neiafu,-18.65,-173.9833,77.68,65,75,8.05,TO,1666736678
Thompson,55.7435,-97.8558,26.76,93,100,10.36,CA,1666736426
Zapolyarnyy,69.4154,30.8136,27.68,92,99,10.67,RU,1666736678
Barão de Melgaço,-16.1944,-55.9675,86.32,46,35,5.84,BR,1666736254
Ust-Nera,64.5667,143.2,15.1,96,100,9.15,RU,1666736679
Coyhaique,-45.5752,-72.0662,58.95,55,75,4.61,CL,1666736679
Talnakh,69.4865,88.3972,7.66,97,96,2.44,RU,1666736287
Meulaboh,4.1363,96.1285,76.17,90,100,4.83,ID,1666736831
Mehamn,71.0357,27.8492,31.51,58,100,5.7,NO,1666736680
Kapaa,22.0752,-159.319,84.52,72,20,17.27,US,1666736601
Areosa,41.7178,-8.8571,64.11,89,37,19.19,PT,1666736680
Hong Kong,22.2855,114.1577,72.25,72,99,13.0,HK,1666736577
Laguna,38.421,-121.4238,77.09,35,0,5.75,US,1666736075
Puerto del Rosario,28.5004,-13.8627,73.15,88,0,5.75,ES,1666736680
Taltal,-25.4,-70.4833,59.86,73,22,4.09,CL,1666736265
Mar del Plata,-38.0023,-57.5575,69.1,85,0,14.0,AR,1666736681
Cidreira,-30.1811,-50.2056,66.16,79,0,19.08,BR,1666736681
São Filipe,14.8961,-24.4956,78.64,79,84,7.31,CV,1666736681
Kibala,9.1104,18.3463,69.75,94,0,0.0,TD,1666736682
Lata,40.1629,-8.3327,65.8,89,1,4.99,PT,1666736682
Brae,60.3964,-1.353,51.71,88,100,8.99,GB,1666736682
Saskylakh,71.9167,114.0833,-6.14,100,70,3.96,RU,1666736833
Mossamedes,-15.1961,12.1522,68.79,85,35,6.85,AO,1666736683
Jacqueville,5.2052,-4.4146,79.45,86,98,8.72,CI,1666736683
Vaini,-21.2,-175.2,75.36,73,75,5.75,TO,1666736834
Ponta Delgada,37.7333,-25.6667,65.12,68,40,12.66,PT,1666736835
Faya,18.3851,42.4509,60.91,72,22,3.98,SA,1666736684
Killybegs,54.6333,-8.45,54.91,95,100,15.95,IE,1666736684
Cherepovets,59.1333,37.9,34.02,74,71,6.15,RU,1666736684
Saint-Philippe,-21.3585,55.7679,67.59,78,39,14.05,RE,1666736836
Tuktoyaktuk,69.4541,-133.0374,12.2,85,75,6.91,CA,1666736837
Cochrane,51.1834,-114.4687,41.27,67,0,9.22,CA,1666736628
Ojuelos de Jalisco,21.8667,-101.5833,75.76,30,38,6.98,MX,1666736685
Provideniya,64.3833,-173.3,28.51,64,100,15.99,RU,1666736837
Sydney Mines,46.2367,-60.2177,60.67,95,100,6.91,CA,1666736685
Chui,-33.6971,-53.4616,60.48,80,12,11.9,UY,1666736685
Vila,42.0304,-8.1588,54.48,92,98,8.84,PT,1666736686
Carauari,-4.8828,-66.8958,79.68,83,96,1.86,BR,1666736686
Westport,41.1415,-73.3579,69.89,89,45,3.0,US,1666736686
Maturin,9.75,-63.1767,78.64,100,71,9.22,VE,1666736687
Loandjili,-4.7561,11.8578,77.77,88,44,3.09,CG,1666736687
Kumul,42.8,93.45,49.32,41,100,1.7,CN,1666736281
Quatre Cocos,-20.2078,57.7625,73.09,78,21,12.91,MU,1666736687
Nehe,48.4833,124.8333,38.8,64,100,18.21,CN,1666736688
Zhangye,38.9342,100.4517,45.63,43,2,6.11,CN,1666736840
Ancud,-41.8697,-73.8203,52.23,92,84,17.45,CL,1666736688
George Town,5.4112,100.3354,78.73,92,20,2.3,MY,1666736595
Helong,42.5397,128.9972,37.94,58,4,5.88,CN,1666736688
San Cristobal,7.7669,-72.225,75.38,75,100,1.45,VE,1666736841
Kuching,1.55,110.3333,75.42,94,20,1.99,MY,1666736457
Grindavik,63.8424,-22.4338,49.95,87,99,10.36,IS,1666736689
Klaksvík,62.2266,-6.589,49.12,92,100,11.83,FO,1666736689
Sehithwa,-20.4667,22.7167,81.28,31,90,5.19,BW,1666736690
Ahipara,-35.1667,173.1667,64.9,57,42,8.99,NZ,1666736690
Dubai,25.2582,55.3047,80.53,69,0,3.44,AE,1666736572
Saint Paul Harbor,57.79,-152.4072,44.11,81,75,3.44,US,1666736842
Sandakan,5.8402,118.1179,76.68,94,20,3.44,MY,1666736690
Nouakchott,18.0858,-15.9785,76.93,69,100,9.66,MR,1666736691
Coquimbo,-29.9533,-71.3436,58.73,72,75,8.05,CL,1666736597
Atar,20.5169,-13.0499,89.37,12,99,5.46,MR,1666736843
Qaanaaq,77.484,-69.3632,22.3,96,100,3.62,GL,1666736691
Ovalle,-30.5983,-71.2003,63.07,50,0,7.11,CL,1666736692
Igarka,67.4667,86.5833,26.04,97,100,3.13,RU,1666736692
Eureka,40.8021,-124.1637,66.67,84,48,4.0,US,1666736692
Haines Junction,60.7522,-137.5108,24.75,54,6,6.91,CA,1666736692
Lüderitz,-26.6481,15.1594,63.97,61,100,15.01,NA,1666736265
Kamaishi,39.2667,141.8833,51.37,66,92,15.35,JP,1666736693
Iqaluit,63.7506,-68.5145,22.73,92,100,24.16,CA,1666736693
Wilmington,34.2257,-77.9447,66.9,82,3,1.99,US,1666736579
Rio Grande,-32.035,-52.0986,66.31,82,0,16.71,BR,1666736844
Campana,-34.1687,-58.9591,77.13,55,87,7.92,AR,1666736694
Along,28.1667,94.7667,64.62,98,76,1.28,IN,1666736694
Xanxerê,-26.8769,-52.4042,77.11,83,0,2.19,BR,1666736459
Veracruz,19.3333,-96.6667,79.74,81,92,2.21,MX,1666736694
Bengkulu,-3.8004,102.2655,73.99,93,100,5.21,ID,1666736695
Pontianak,-0.0333,109.3333,75.18,94,40,2.3,ID,1666736696
Zhigansk,66.7697,123.3711,1.51,96,89,5.82,RU,1666736696
Waipawa,-41.4122,175.5153,59.83,59,60,13.29,NZ,1666736845
Lagoa,39.05,-27.9833,63.05,67,19,23.38,PT,1666736697
Micheweni,-4.9667,39.8333,75.92,84,14,7.47,TZ,1666736697
Rancho Palos Verdes,33.7445,-118.387,80.53,57,0,12.66,US,1666736697
Asău,46.4333,26.4,52.72,90,96,2.37,RO,1666736698
Geraldton,-28.7667,114.6,48.61,87,0,3.44,AU,1666736698
Derzhavīnsk,51.1,66.3167,37.83,61,100,6.8,KZ,1666736698
Peniche,39.3558,-9.3811,66.29,92,0,16.6,PT,1666736699
Nhulunbuy,-12.2333,136.7667,84.81,74,28,10.36,AU,1666736699
Erzin,36.9559,36.2,69.37,35,34,6.64,TR,1666736699
Belomorsk,64.5232,34.7668,29.73,90,95,5.61,RU,1666736700
Guadalupe y Calvo,26.1,-106.9667,63.03,29,66,7.14,MX,1666736700
Kavaratti,10.5669,72.642,81.9,61,95,7.96,IN,1666736700
Souillac,-20.5167,57.5167,71.98,78,40,9.22,MU,1666736701
Tiznit Province,29.5833,-9.5,80.02,16,83,10.09,MA,1666736701
Namwala,-15.7504,26.4384,76.41,42,5,3.78,ZM,1666736701
Ust'-Tarka,55.5672,75.705,30.27,78,100,7.34,RU,1666736702
Basco,20.4487,121.9702,78.01,66,99,24.96,PH,1666736702
Clyde River,70.4692,-68.5914,5.23,66,0,4.61,CA,1666736703
Port Macquarie,-31.4333,152.9167,76.89,62,8,5.53,AU,1666736582
Mackay,-21.15,149.2,85.68,63,33,0.87,AU,1666736434
Cairns,-16.9167,145.7667,86.11,74,0,2.3,AU,1666736704
Vila Velha,-20.3297,-40.2925,70.95,96,100,3.44,BR,1666736848
Léo,11.1,-2.1,81.18,35,14,5.97,BF,1666736459
Khurba,50.4072,136.8819,33.21,78,30,9.93,RU,1666736704
Cartagena,10.3997,-75.5144,83.82,79,40,6.91,CO,1666736471
Longfeng,46.55,125.1167,46.36,61,100,7.05,CN,1666736705
Alice Town,25.7167,-79.3,78.44,66,1,11.81,BS,1666736705
Burnie,-41.0667,145.9167,57.94,85,100,8.68,AU,1666736849
Calvinia,-31.4707,19.776,57.85,47,100,3.53,ZA,1666736706
Corrente,-3.7367,-43.3394,75.47,89,90,3.49,BR,1666736706
Sola,-13.8833,167.55,79.21,76,7,1.07,VU,1666736285
Madīnat Sittah Uktūbar,29.8167,31.05,71.2,78,25,11.74,EG,1666736707
Chistogorskiy,53.9835,87.3843,29.52,70,2,2.68,RU,1666736707
Buala,-8.145,159.5921,84.02,71,57,3.76,SB,1666736708
Uşak Province,38.5,29.4167,54.21,39,0,6.35,TR,1666736708
Nanortalik,60.1432,-45.2371,33.67,76,1,4.79,GL,1666736709
Samarai,-10.6167,150.6667,81.95,68,18,7.54,PG,1666736257
Anadyr,64.75,177.4833,7.3,84,75,8.95,RU,1666736709
Mier,26.4333,-99.15,80.91,16,0,8.88,MX,1666736710
Sibolga,1.7427,98.7792,75.49,88,100,2.84,ID,1666736710
Todos Santos,23.45,-110.2167,86.05,72,5,7.25,MX,1666736710
Kitgum,3.2783,32.8867,72.82,70,98,3.04,UG,1666736711
Manitouwadge,49.1215,-85.8403,43.16,71,90,10.49,CA,1666736711
Te Anau,-45.4167,167.7167,51.3,90,100,4.41,NZ,1666736711
Matara,5.9485,80.5353,75.9,89,100,3.58,LK,1666736712
Tambura,5.6,27.4667,67.46,94,99,1.97,SS,1666736712
Horodok,49.1637,26.5839,50.97,96,82,5.53,UA,1666736713
Goderich,43.7501,-81.7165,66.52,52,95,8.05,CA,1666736713
Hvide Sande,56.0045,8.1294,52.09,89,62,11.79,DK,1666736713
Thap Than,15.4606,99.8917,76.23,87,100,2.44,TH,1666736714
Catalão,-18.1658,-47.9464,79.7,29,39,4.0,BR,1666736665
Çermik,38.1361,39.4493,58.73,37,0,2.64,TR,1666736714
Saint-Leu,-21.15,55.2833,70.63,74,29,4.05,RE,1666736715
Carnarvon,-24.8667,113.6333,63.23,68,0,22.73,AU,1666736716
Saint-Pierre,-21.3393,55.4781,70.92,77,0,5.75,RE,1666736262
Porto Murtinho,-21.6989,-57.8825,84.96,37,0,4.81,BR,1666736716
Beringovskiy,63.05,179.3167,20.97,78,97,10.94,RU,1666736717
Saint-Augustin,51.226,-58.6502,52.9,78,68,7.36,CA,1666736717
Lorengau,-2.0226,147.2712,84.07,67,100,4.61,PG,1666736718
Bonfim,3.0833,-59.95,84.43,67,92,3.58,BR,1666736718
Yangi Marg`ilon,40.4272,71.7189,56.12,82,40,4.61,UZ,1666736718
Nantucket,41.2835,-70.0995,68.11,95,100,9.22,US,1666736648
Lompoc,34.6391,-120.4579,79.02,67,0,20.71,US,1666736719
Lamu,-2.2717,40.902,79.02,85,100,11.34,KE,1666736719
Iaçu,-12.7672,-40.2117,75.11,79,100,6.4,BR,1666736720
Wolfsburg,52.4333,10.8,55.45,65,29,5.21,DE,1666736720
Eišiškės,54.1667,25.0,49.15,95,80,5.79,LT,1666736720
Kruisfontein,-34.0033,24.7314,60.89,71,100,9.08,ZA,1666736853
Laas,46.6166,10.7002,52.68,91,82,2.24,IT,1666736721
Olafsvik,64.8945,-23.7142,41.74,81,100,19.77,IS,1666736722
Oranjemund,-28.55,16.4333,57.38,89,99,9.78,NA,1666736722
Bubaque,11.2833,-15.8333,84.79,74,25,8.68,GW,1666736722
Virginia Beach,36.8529,-75.978,63.01,94,100,4.61,US,1666736694
Longkou,37.6508,120.3286,56.73,77,100,12.08,CN,1666736723
Broome,42.2506,-75.833,67.06,80,0,4.61,US,1666736723
Hauterive,46.0901,3.4459,65.16,70,91,3.91,FR,1666736724
Indian Head,38.6001,-77.1622,65.25,83,100,8.05,US,1666736566
Nome,64.5011,-165.4064,28.47,70,20,28.77,US,1666736854
Baruun-Urt,46.6806,113.2792,20.39,51,0,6.58,MN,1666736724
Sungai Raya,0.7,108.9,76.1,92,100,4.45,ID,1666736725
Salem,11.65,78.1667,69.37,72,9,3.8,IN,1666736472
Vestmannaeyjar,63.4427,-20.2734,44.91,86,100,20.49,IS,1666736725
Outjo,-20.1167,16.15,74.48,27,12,10.25,NA,1666736725
Ostër,50.9506,30.8823,52.07,97,100,3.38,UA,1666736726
Hīt,33.6416,42.8251,72.37,19,42,5.66,IQ,1666736726
Sindor,62.8629,51.8905,27.79,96,66,4.41,RU,1666736726
Rocha,-34.4833,-54.3333,60.13,81,8,10.98,UY,1666736727
Buşayrā,30.7376,35.6078,61.27,59,2,10.18,JO,1666736727
Euclid,41.5931,-81.5268,72.18,50,0,5.75,US,1666736727
Rognan,67.0953,15.3878,44.06,87,100,3.42,NO,1666736728
Port Lincoln,-34.7333,135.8667,58.23,82,87,11.03,AU,1666736728
Bambari,5.768,20.6757,73.02,84,97,0.63,CF,1666736728
Newton,42.337,-71.2092,65.5,96,100,8.05,US,1666736729
Barabai,-2.5833,115.3833,74.19,99,99,1.99,ID,1666736729
Lermontovka,47.1453,134.3383,34.74,63,5,8.43,RU,1666736729
Nelson Bay,-32.7167,152.15,76.08,68,61,5.99,AU,1666736730
Ko Samui,9.5357,99.9357,80.51,89,20,3.44,TH,1666736730
Hualmay,-11.0964,-77.6139,64.81,75,14,11.27,PE,1666736730
Cockburn Town,21.4612,-71.1419,80.19,71,100,3.13,TC,1666736731
Panguna,-6.3164,155.4848,78.04,73,96,0.87,PG,1666736731
Cortez,37.3489,-108.5859,55.04,34,0,8.05,US,1666736731
Chernyshevskiy,63.0128,112.4714,25.39,87,100,9.75,RU,1666736732
Zabaykal'sk,49.6333,117.3167,25.79,53,33,12.1,RU,1666736732
Puerto Escondido,15.85,-97.0667,85.03,54,40,9.22,MX,1666736732
Marzuq,14.4,46.4667,66.25,60,6,2.86,YE,1666736464
Ugoofaaru,5.6667,73.0,80.53,81,90,6.55,MV,1666736733
Vanavara,60.34,102.2797,28.36,78,96,11.1,RU,1666736283
Flinders,-34.5833,150.8552,70.18,78,68,5.99,AU,1666736733
Banff,51.1762,-115.5698,38.43,41,78,10.36,CA,1666736733
Barra do Garças,-15.89,-52.2567,82.96,49,31,4.14,BR,1666736734
Chimbote,-9.0853,-78.5783,64.81,75,47,9.86,PE,1666736476
Cradock,-32.1642,25.6192,55.11,69,100,8.08,ZA,1666736734
Grand Gaube,-20.0064,57.6608,73.38,72,35,4.0,MU,1666736734
Zafra,38.4167,-6.4167,64.24,73,100,3.83,ES,1666736735
Pompéu,-19.2244,-44.9353,73.96,52,30,5.82,BR,1666736562
Hobyo,5.3505,48.5268,79.3,83,89,10.47,SO,1666736735
West Bay,19.3667,-81.4167,86.07,71,20,8.05,KY,1666736735
Leirvik,59.7798,5.5005,53.64,91,49,5.75,NO,1666736736
Kologriv,58.8275,44.3178,29.12,92,7,1.16,RU,1666736467
Norman Wells,65.282,-126.8329,19.44,86,75,4.61,CA,1666736858
Caxito,-8.5785,13.6643,77.63,82,19,3.38,AO,1666736736
Mvuma,-19.2792,30.5283,68.29,52,63,5.55,ZW,1666736737
Taoudenni,22.6783,-3.9836,82.58,12,82,10.69,ML,1666736737
Karpathos,35.507,27.2132,64.36,88,0,6.91,GR,1666736737
Batticaloa,7.7102,81.6924,78.03,82,69,1.05,LK,1666736737
Egvekinot,66.3167,-179.1667,8.08,84,40,4.85,RU,1666736859
Rincon,32.296,-81.2354,73.36,72,40,8.05,US,1666736738
Harper,4.375,-7.7169,77.25,90,52,7.96,LR,1666736738
Sitka,57.0531,-135.33,46.29,61,20,0.0,US,1666736739
San Rafael,-34.6177,-68.3301,68.49,51,83,19.51,AR,1666736739
Sobolevo,54.4299,31.8996,44.76,90,100,8.48,RU,1666736739
Coxim,-18.5067,-54.76,89.13,29,1,7.18,BR,1666736739
Ziro,27.6333,93.8333,51.33,98,96,0.38,IN,1666736740
Kidal,18.4411,1.4078,82.98,20,94,10.92,ML,1666736740
Zyryanka,65.75,150.85,11.82,96,100,11.25,RU,1666736740
Ocós,14.5094,-92.1933,87.98,73,11,7.7,GT,1666736266
Guerrero Negro,27.9769,-114.0611,76.87,32,0,11.61,MX,1666736860
Vila Franca do Campo,37.7167,-25.4333,64.81,69,100,10.42,PT,1666736741
Kavieng,-2.5744,150.7967,83.77,74,100,6.08,PG,1666736861
Karratha,-20.7377,116.8463,73.98,27,0,9.71,AU,1666736741
Arivonimamo,-19.0167,47.1833,62.65,75,97,0.34,MG,1666736742
Ivolginsk,51.7492,107.2837,10.06,85,0,2.24,RU,1666736742
Aldan,58.6031,125.3894,20.52,92,100,8.93,RU,1666736742
Cuamba,-14.8031,36.5372,79.02,34,94,2.64,MZ,1666736742
Kulhudhuffushi,6.6221,73.07,80.04,80,82,4.92,MV,1666736743
Bellevue,47.6104,-122.2007,51.75,91,100,16.11,US,1666736345
San Carlos,9.6612,-68.5827,81.05,75,100,1.34,VE,1666736743
Presidencia Roque Sáenz Peña,-26.7852,-60.4388,90.05,30,8,8.32,AR,1666736744
Taicheng,38.731,113.228,48.83,53,100,1.83,CN,1666736744
Moussoro,13.6408,16.4901,83.7,14,2,16.28,TD,1666736744
Aksu,41.1231,80.2644,48.52,34,49,2.66,CN,1666736745
Cayenne,4.9333,-52.3333,80.64,83,100,5.75,GF,1666736745
Mthatha,-31.5889,28.7844,57.52,86,100,4.9,ZA,1666736745
Kupang,-10.1667,123.5833,79.23,81,100,3.96,ID,1666736746
Nemuro,43.3236,145.575,45.61,54,9,5.48,JP,1666736746
Kirakira,-10.4544,161.9205,84.0,73,2,3.31,SB,1666736746
Dunedin,-45.8742,170.5036,55.78,56,100,2.51,NZ,1666736707
Superior,46.7208,-92.1041,45.7,63,40,13.8,US,1666736747
Praia da Vitória,38.7333,-27.0667,59.76,94,40,12.5,PT,1666736747
Campo Grande,-20.4428,-54.6464,83.75,45,40,4.61,BR,1666736747
Boa Vista,2.8197,-60.6733,76.98,88,75,9.22,BR,1666736710
Hanzhong,33.0728,107.0303,56.55,97,100,0.16,CN,1666736748
Epe,6.5841,3.9834,77.52,88,100,4.61,NG,1666736748
Yar-Sale,66.8333,70.8333,19.58,95,99,9.4,RU,1666736748
Manaure,11.7751,-72.4445,79.7,83,100,14.2,CO,1666736749
Borinskoye,52.4569,39.3713,36.27,80,72,6.4,RU,1666736473
Gorontalo,0.5412,123.0595,76.48,89,99,1.68,ID,1666736730
Padang,-0.9492,100.3543,75.47,93,100,3.29,ID,1666736539
Kon Tum,14.35,108.0,70.54,96,100,1.16,VN,1666736749
Henties Bay,-22.116,14.2845,57.9,95,84,4.38,NA,1666736749
Flin Flon,54.7682,-101.865,30.04,80,100,8.05,CA,1666736750
Dauphin,51.1494,-100.0502,33.94,69,100,14.97,CA,1666736750
Umm Hājar,13.2954,19.6966,81.7,16,2,14.83,TD,1666736750
Maragogi,-9.0122,-35.2225,77.58,79,45,11.36,BR,1666736751
Bykovo,55.6361,38.0803,37.42,93,0,6.71,RU,1666736751
Malayal,7.208,121.942,76.8,86,94,3.29,PH,1666736751
Faanui,-16.4833,-151.75,79.59,77,99,24.38,PF,1666736457
Wajima,37.4,136.9,59.09,59,64,12.95,JP,1666736752
Ozernovskiy,51.5,156.5167,40.3,59,80,5.57,RU,1666736752
Tilichiki,60.4667,166.1,30.11,75,80,16.37,RU,1666736752
Laurel,39.0993,-76.8483,63.61,93,100,5.75,US,1666736716
Jiaocheng,24.6774,116.1389,59.81,79,87,1.52,CN,1666736753
Biak,-0.9131,122.8766,77.68,81,99,2.42,ID,1666736753
Yakima,46.4665,-120.6678,55.33,58,40,11.5,US,1666736493
Umluj,25.0213,37.2685,78.39,62,0,6.2,SA,1666736753
Karoi,-16.8099,29.6925,72.16,45,3,3.78,ZW,1666736754
kimparana,12.8347,-4.9244,83.93,22,99,7.4,ML,1666736754
Bayjī,34.9311,43.487,69.73,22,35,6.91,IQ,1666736754
Abnūb,27.2696,31.1511,68.22,36,12,7.47,EG,1666736755
Viedma,-40.8135,-62.9967,68.47,56,98,14.88,AR,1666736755
Palmer,42.1584,-72.3287,68.25,82,40,5.75,US,1666736699
Stary Krym,45.0333,35.1,52.02,88,87,9.6,UA,1666736755
Posse,-14.0931,-46.3694,78.67,38,57,2.89,BR,1666736756
Coron,11.9986,120.2043,78.69,87,98,1.99,PH,1666736756
Semey,50.4111,80.2275,19.62,79,0,8.95,KZ,1666736867
Christchurch,-43.5333,172.6333,63.48,66,83,5.75,NZ,1666736867
Hamilton,39.1834,-84.5333,75.88,51,100,12.66,US,1666736645
Mangai,-4.05,19.5333,69.08,96,55,2.51,CD,1666736757
Dakar,14.6937,-17.4441,82.53,89,75,13.8,SN,1666736664
Touros,-5.1989,-35.4608,78.15,76,55,14.83,BR,1666736757
Kamenka,51.3223,42.7678,34.93,66,29,4.97,RU,1666736757
Muyinga Province,-2.8333,30.3333,64.08,65,98,2.71,BI,1666736758
Batagay-Alyta,67.8006,130.4114,14.25,71,100,6.91,RU,1666736281
Bollnäs,61.3482,16.3946,43.45,97,100,5.48,SE,1666736758
Cabra,37.4725,-4.4421,67.23,50,98,1.61,ES,1666736758
Luganville,-15.5333,167.1667,81.73,76,23,3.18,VU,1666736759
Mandalgovi,45.7625,106.2708,20.46,65,1,4.97,MN,1666736759
Escárcega,18.6089,-90.7454,93.02,47,66,5.06,MX,1666736759
Oruro,-17.9833,-67.15,63.09,29,40,16.11,BO,1666736760
Xining,36.6167,101.7667,44.22,90,100,0.43,CN,1666736691
Shenjiamen,29.9576,122.298,65.28,73,100,7.31,CN,1666736869
Santa Rosa,14.3122,121.1114,76.98,97,93,7.83,PH,1666736870
Gulu,2.7746,32.299,66.61,84,72,2.95,UG,1666736760
Cabo San Lucas,22.8909,-109.9124,87.62,54,20,11.5,MX,1666736630
Ostrovnoy,68.0531,39.5131,31.19,88,93,17.43,RU,1666736761
Saint George,37.1041,-113.5841,67.42,22,0,3.0,US,1666736870
Puerto Carreño,6.189,-67.4859,89.58,58,20,3.44,CO,1666736761
Kommunisticheskiy,61.6789,64.4819,24.8,95,43,4.41,RU,1666736761
Leningradskiy,69.3833,178.4167,2.71,89,59,5.03,RU,1666736871
Bosobolo,4.1833,19.9,70.77,96,99,1.36,CD,1666736762
Kharitonovo,61.4009,47.4978,28.76,97,25,4.23,RU,1666736468
Aquiraz,-3.9014,-38.3911,80.69,77,71,10.92,BR,1666736556
Leh,34.1667,77.5833,29.44,49,0,0.65,IN,1666736762
Paamiut,61.994,-49.6678,30.6,60,24,5.37,GL,1666736872
Fes,34.0372,-4.9998,70.05,30,0,8.05,MA,1666736763
Chuguyevka,44.1653,133.8633,32.45,61,0,4.65,RU,1666736763
Trincomalee,8.5711,81.2335,78.96,78,25,2.64,LK,1666736764
Narón,43.5167,-8.1528,67.59,76,80,17.47,ES,1666736764
Road Town,18.4167,-64.6167,84.29,84,20,4.61,VG,1666736765
Valle de Allende,26.9333,-105.4,73.76,28,59,2.48,MX,1666736765
Almaşu Mare,46.1,23.1333,48.87,97,49,3.65,RO,1666736765
Jimeta,9.2833,12.4667,82.63,78,0,0.0,NG,1666736873
Port Jervis,41.3751,-74.6927,69.58,95,100,3.58,US,1666736766
Nalobikha,53.2006,84.6039,31.05,60,0,5.53,RU,1666736767
Vung Tau,10.346,107.0843,80.31,84,99,6.67,VN,1666736767
Jerez,14.1,-89.75,77.45,78,40,0.0,GT,1666736767
Marquard,-28.6645,27.4305,61.88,23,69,2.98,ZA,1666736768
Dudinka,69.4058,86.1778,-1.08,100,98,5.68,RU,1666736768
Doctor Arroyo,23.6667,-100.1833,75.78,47,86,15.93,MX,1666736769
Januária,-15.4833,-44.3667,86.09,29,76,4.94,BR,1666736874
Kota Kinabalu,5.9749,116.0724,75.18,88,20,5.75,MY,1666736769
Rodeo,38.033,-122.2669,78.12,56,0,8.01,US,1666736770
Codrington,-38.2667,141.9667,57.87,96,99,10.38,AU,1666736770
Ribas do Rio Pardo,-20.4431,-53.7592,79.88,42,0,6.49,BR,1666736770
Pangkalanbuun,-2.6833,111.6167,73.2,99,100,2.28,ID,1666736771
Mount Gambier,-37.8333,140.7667,58.91,94,100,8.05,AU,1666736771
São Sepé,-30.1606,-53.5653,67.19,68,3,5.88,BR,1666736689
Omboué,-1.5746,9.2618,77.05,88,97,2.51,GA,1666736772
Ilulissat,69.2167,-51.1,26.62,93,100,4.61,GL,1666736275
Kuytun,54.3419,101.5036,25.47,66,4,6.06,RU,1666736772
Kemijärvi,66.7131,27.4306,30.11,79,100,6.4,FI,1666736773
Pertuis,43.6925,5.5028,67.48,70,59,6.96,FR,1666736773
Brenham,30.1669,-96.3977,73.35,30,0,10.36,US,1666736587
Navur,40.8669,45.3418,39.74,80,18,2.98,AM,1666736773
Amahai,-3.3333,128.9167,79.83,83,92,1.99,ID,1666736278
Santa Cruz de la Sierra,-17.8,-63.1667,91.45,46,20,12.66,BO,1666736774
Hasaki,35.7333,140.8333,56.21,63,100,29.91,JP,1666736774
Galle,6.0367,80.217,77.2,86,100,3.24,LK,1666736775
Progreso,21.2833,-89.6667,91.51,80,87,12.03,MX,1666736775
Dayong,25.0209,118.2898,56.71,83,50,4.32,CN,1666736775
Akureyri,65.6835,-18.0878,39.13,81,100,3.44,IS,1666736567
Shahr-e Bābak,30.1165,55.1186,60.64,19,14,3.29,IR,1666736776
Aripuanã,-9.1667,-60.6333,73.6,92,100,1.74,BR,1666736877
Andalan,5.9594,121.3903,78.94,85,99,9.6,PH,1666736776
Safaga,26.7292,33.9365,77.02,42,0,3.96,EG,1666736777
Gravdal,68.1214,13.5031,40.95,65,90,1.57,NO,1666736777
Makarov,48.6333,142.8,40.26,84,43,8.37,RU,1666736777
Komsomol'skoye,55.2567,47.5461,31.14,88,61,5.82,RU,1666736778
Gondanglegi,-7.7479,112.0132,75.31,84,99,10.56,ID,1666736778
Coahuayana Viejo,18.7333,-103.6833,83.52,76,81,5.35,MX,1666736778
Port Augusta,-32.5,137.7667,60.58,82,71,7.31,AU,1666736779
Kadoma,34.7333,135.5833,57.18,73,20,1.14,JP,1666736779
Valparaíso,-33.0393,-71.6273,60.48,92,75,9.22,CL,1666736779
Punta de Bombón,-17.1717,-71.7931,63.1,74,12,6.76,PE,1666736780
Lusambo,-4.9667,23.45,70.88,97,97,2.68,CD,1666736780
Vågåmo,61.8751,9.0967,42.66,96,98,2.91,NO,1666736780
Sinnamary,5.3833,-52.95,80.8,79,97,9.89,GF,1666736781
Hay River,60.8156,-115.7999,33.78,93,100,10.36,CA,1666736588
Caravelas,-17.7125,-39.2481,71.87,92,29,5.3,BR,1666736781
Saint-Joseph,-21.3667,55.6167,66.58,76,20,10.11,RE,1666736782
Ayan,56.45,138.1667,34.47,57,100,7.56,RU,1666736782
Le Port,-20.9373,55.2919,71.56,69,19,10.13,RE,1666736783
Sabang,5.8933,95.3214,81.18,78,92,12.68,ID,1666736783
Pokosnoye,55.5258,101.0536,26.82,58,52,5.06,RU,1666736783
Narsaq,60.9167,-46.05,26.82,73,1,6.8,GL,1666736784
Tarime,-1.35,34.3667,65.34,65,93,3.65,TZ,1666736784
Manyana,-23.4,21.7167,78.84,22,75,10.8,BW,1666736784
Chincha Alta,-13.4099,-76.1323,63.19,75,14,6.78,PE,1666736785
Palivere,58.9664,23.8911,51.62,94,100,5.53,EE,1666736785
Aksarka,66.5606,67.7975,22.08,90,99,5.23,RU,1666736785
Morshansk,53.4435,41.8107,30.11,98,11,1.01,RU,1666736786
Marsh Harbour,26.5412,-77.0636,78.93,69,7,9.75,BS,1666736786
Drakhtik,40.565,45.2367,38.88,76,7,1.83,AM,1666736787
Mchinji,-13.7984,32.8802,72.82,42,90,3.83,MW,1666736787
Jonesboro,35.8423,-90.7043,55.17,66,100,23.02,US,1666736717
Bolobo,-2.1667,16.2333,70.48,97,87,1.54,CD,1666736787
Bowen,-20.0167,148.2333,81.5,79,53,3.4,AU,1666736788
Sri Aman,1.2376,111.4621,73.45,94,99,2.3,MY,1666736788
Lukulu,-14.3707,23.242,72.91,44,40,4.25,ZM,1666736788
Letterkenny,54.95,-7.7333,55.2,97,100,14.29,IE,1666736789
Berdigestyakh,62.0989,126.6992,25.29,95,100,7.45,RU,1666736882
Labuhan,-6.8844,112.2051,77.79,81,87,11.92,ID,1666736789
Djibo,14.1022,-1.6306,88.34,19,8,8.12,BF,1666736883
Ngunguru,-35.6167,174.5,60.67,68,31,10.31,NZ,1666736790
Litein,-0.5823,35.1903,54.64,75,73,3.42,KE,1666736790
Revda,56.801,59.9303,26.64,96,83,4.74,RU,1666736790
Macas,-2.3167,-78.1167,76.75,78,75,3.44,EC,1666736791
Husavik,66.0449,-17.3389,35.53,87,100,7.0,IS,1666736791
Preobrazheniye,42.9019,133.9064,43.57,74,19,6.71,RU,1666736791
Itaqui,-29.1253,-56.5531,74.21,51,0,7.09,BR,1666736792
Isiro,2.7739,27.616,66.31,99,96,1.95,CD,1666736792
Blackwater,-23.5833,148.8833,79.63,30,7,5.68,AU,1666736792
Yining,29.0361,114.5636,60.04,49,85,1.36,CN,1666736792
Pyaozerskiy,65.8333,31.1667,30.49,85,97,6.46,RU,1666736793
Ligayan,4.6533,119.4706,81.61,80,96,12.06,PH,1666736793
Marabba,12.35,32.1833,83.48,21,8,11.88,SD,1666736793
Manzhouli,49.6,117.4333,26.58,52,37,12.35,CN,1666736794
North Platte,41.1239,-100.7654,63.12,27,1,4.0,US,1666736794
Mackenzie,55.2999,-123.1698,37.62,81,75,10.36,CA,1666736709
Maţāy,28.419,30.7792,69.85,64,13,5.97,EG,1666736885
Magadan,59.5667,150.8,23.14,89,62,10.04,RU,1666736795
Brunsbüttel,53.9,9.15,53.01,92,38,1.01,DE,1666736795
San Luis,-33.295,-66.3356,78.49,44,75,16.11,AR,1666736795
Nabire,-3.3667,135.4833,77.5,86,100,2.8,ID,1666736707
Mahenge,-8.6833,36.7167,63.37,77,98,3.94,TZ,1666736796
Krasnyy Oktyabr',56.1167,38.8833,30.0,92,22,4.56,RU,1666736796
Roebourne,-20.7833,117.1333,74.03,32,0,10.25,AU,1666736796
Tarauacá,-8.1614,-70.7656,86.56,60,39,1.63,BR,1666736786
Anlu,31.1661,112.5831,57.92,82,100,6.6,CN,1666736797
Novikovo,51.1537,37.8879,47.68,88,100,8.08,RU,1666736797
Kondinskoye,59.6481,67.41,28.36,91,11,5.23,RU,1666736529
Northam,51.0333,-4.2167,59.61,92,100,22.86,GB,1666736797
